[
  {
    "name": "Pau Hana Poke",
    "description": "",
    "maps": "https://maps.app.goo.gl/vidnyPKSitVJbgnZ7",
    "coordinates": "19.68818643942828, -156.01610342882722",
    "type": [
      "Restaurant"
    ],
    "region": "West",
    "town": "Kona",
    "notes": "",
    "done": false
  },
  {
    "name": "Mauna Kea Mid-Level Observatory",
    "description": "",
    "maps": "https://maps.app.goo.gl/t1wJahkjRmPHJKuG6",
    "coordinates": "19.76172698447164, -155.4557217905255",
    "type": [
      "Hike",
      "Sight"
    ],
    "region": "North",
    "town": "",
    "notes": "",
    "done": false
  },
  {
    "name": "Kamakahonu Beach",
    "description": "Located at King Kamehameha Kona Beach Hotel. Not sure about parking.",
    "maps": "https://maps.app.goo.gl/ZrxmqV83RP5psnM17",
    "coordinates": "19.63956912924782, -155.9977768210922",
    "type": [
      "Child friendly beach"
    ],
    "region": "West",
    "town": "Kona",
    "notes": "",
    "done": false
  },
  {
    "name": "Wawaloli Beach Park",
    "description": "Located by the Natural Energy Lab Kona. Offers a very calm and shallow sandy area as well as a rough high wave rocky area. Snorkeling opportunities here are great.",
    "maps": "https://maps.app.goo.gl/bPz4NR7QAubhmLZC8",
    "coordinates": "19.71644550585769, -156.04996494516303",
    "type": [
      "Child friendly beach",
      "Snorkel"
    ],
    "region": "West",
    "town": "Kona",
    "notes": "",
    "done": false
  },
  {
    "name": "Onekahakaha Beach Park",
    "description": "Sheltered wading pool along the eastern park of the park",
    "maps": "https://maps.app.goo.gl/P9ZGQKfKustmqAFBA",
    "coordinates": "19.737731826494148, -155.03763000050947",
    "type": [
      "Child friendly beach"
    ],
    "region": "East",
    "town": "Hilo",
    "notes": "",
    "done": false
  },
  {
    "name": "Keiki Beach",
    "description": "",
    "maps": "https://maps.app.goo.gl/NbvjLnnH8bREb3hKA",
    "coordinates": "19.638416026801682, -156.00264386336733",
    "type": [
      "Child friendly beach"
    ],
    "region": "West",
    "town": "Kailua",
    "notes": "",
    "done": false
  },
  {
    "name": "Kamakana Playground",
    "description": "",
    "maps": "https://maps.app.goo.gl/vLd38roiGfypZFpM6",
    "coordinates": "19.552201817531806, -155.93664066476117",
    "type": [
      "Playground"
    ],
    "region": "West",
    "town": "Kona",
    "notes": "",
    "done": false
  },
  {
    "name": "Anuenue Playground",
    "description": "",
    "maps": "https://maps.app.goo.gl/NuHwP3xT5k2XdriX6",
    "coordinates": "20.022065917336793, -155.67053891371472",
    "type": [
      "Playground"
    ],
    "region": "North",
    "town": "Waimea",
    "notes": "",
    "done": false
  },
  {
    "name": "Gilbert Kahele Recreation Area Playground",
    "description": "Possibly closed?",
    "maps": "https://maps.app.goo.gl/Uuz3z2pdeDzNbdwQ7",
    "coordinates": "19.74878232270918, -155.52624515193153",
    "type": [
      "Playground"
    ],
    "region": "North",
    "town": "",
    "notes": "",
    "done": false
  },
  {
    "name": "Mokupāpapa Discovery Center",
    "description": "",
    "maps": "https://maps.app.goo.gl/BHSqcsnzhv12PF9PA",
    "coordinates": "19.726634526400566, -155.08700743893263",
    "type": [
      "Kid experience"
    ],
    "region": "East",
    "town": "Hilo",
    "notes": "",
    "done": false
  },
  {
    "name": "Mokuaikaua Church",
    "description": "Built in 1820 and free",
    "maps": "https://maps.app.goo.gl/9L9nQUoZUvtz6JTM8",
    "coordinates": "19.639603301031144, -155.99374994299734",
    "type": [
      "History"
    ],
    "region": "West",
    "town": "Kona",
    "notes": "",
    "done": false
  },
  {
    "name": "Don the Beachcomber",
    "description": "Not great food and drink, but good sunset",
    "maps": "https://maps.app.goo.gl/R4uDtcEAa7Tmw1ZT6",
    "coordinates": "19.632437384220562, -155.990289493253",
    "type": [
      "Restaurant"
    ],
    "region": "West",
    "town": "Kona",
    "notes": "",
    "done": false
  },
  {
    "name": "Zippy's",
    "description": "",
    "maps": "https://maps.app.goo.gl/s4y4vrBRMBviCyYMA",
    "coordinates": "19.696819618884724, -155.06432105673102",
    "type": [
      "Restaurant"
    ],
    "region": "East",
    "town": "",
    "notes": "",
    "done": false
  },
  {
    "name": "Kaumana Caves Lava Tube",
    "description": "1/2 mile hike",
    "maps": "https://maps.app.goo.gl/mUN5LJirF3vBqcmf8",
    "coordinates": "19.686867631328603, -155.13083580929407",
    "type": [
      "Hike"
    ],
    "region": "East",
    "town": "Hilo",
    "notes": "",
    "done": false
  },
  {
    "name": "Hilo Farmers Market",
    "description": "",
    "maps": "https://maps.app.goo.gl/Pfj9MuEqmW5phfqe9",
    "coordinates": "19.72296604854268, -155.08479962795462",
    "type": [
      "Market"
    ],
    "region": "East",
    "town": "Hilo",
    "notes": "",
    "done": false
  },
  {
    "name": "Nāhuku Lava Tube",
    "description": "Also called the Thursdton lava tube. This is 1/2 mile hike. Lit from 8am to 8pm, and much less crowded at nightime.",
    "maps": "https://maps.app.goo.gl/Yw9cx2V3XBr6daNC9",
    "coordinates": "19.41367679076264, -155.2387393818057",
    "type": [
      "Hike"
    ],
    "region": "South",
    "town": "Volcano",
    "notes": "",
    "done": false
  },
  {
    "name": "Sulphur Banks Trail",
    "description": "3/4 mile hike, Not good for children.",
    "maps": "https://maps.app.goo.gl/HiRbb4Jb8FaoqYio9",
    "coordinates": "19.43141135470354, -155.26724818172806",
    "type": [
      "Hike"
    ],
    "region": "South",
    "town": "Volcano",
    "notes": "",
    "done": false
  },
  {
    "name": "Kīpuka Puaulu Trail",
    "description": "1.6 mile hike. Lots of birds, a little cave near marker 6.",
    "maps": "https://maps.app.goo.gl/UMwG7PvZmA1q2WeH7",
    "coordinates": "19.437557509460667, -155.3031721341319",
    "type": [
      "Hike"
    ],
    "region": "South",
    "town": "Volcano",
    "notes": "",
    "done": false
  },
  {
    "name": "Punalu'u Black Sand Beach",
    "description": "The water is cold due to a spring offshore",
    "maps": "https://maps.app.goo.gl/ZaTfUgUpfNUiLVoVA",
    "coordinates": "19.136241317467892, -155.50472307928575",
    "type": [
      "Beach"
    ],
    "region": "South",
    "town": "",
    "notes": "",
    "done": false
  },
  {
    "name": "Greenwell Farms",
    "description": "Coffee farm with free tours",
    "maps": "https://maps.app.goo.gl/rKEcDwfptdKJaDEA6",
    "coordinates": "19.510946532720386, -155.92038890526197",
    "type": [
      "Sight"
    ],
    "region": "West",
    "town": "Kona",
    "notes": "",
    "done": false
  },
  {
    "name": "Island Gourmet Market",
    "description": "I think this is like a fancy ABC",
    "maps": "https://maps.app.goo.gl/rhhsNdoBshtFrYwr6",
    "coordinates": "19.913828194943047, -155.8809908155275",
    "type": [
      "Market"
    ],
    "region": "West",
    "town": "Waikoloa",
    "notes": "",
    "done": false
  },
  {
    "name": "Puakō Petroglyphs",
    "description": "Park at Malama trailhead",
    "maps": "https://maps.app.goo.gl/uM4Xvv2xVg2GWEJy6",
    "coordinates": "19.95520847750493, -155.85942081735482",
    "type": [
      "Hike"
    ],
    "region": "West",
    "town": "",
    "notes": "",
    "done": false
  },
  {
    "name": "Hilton Waikoloa Village",
    "description": "",
    "maps": "https://maps.app.goo.gl/RNxPa5hQDdAXWACk7",
    "coordinates": "19.92357064103036, -155.88780880518746",
    "type": [
      "Kid experience"
    ],
    "region": "West",
    "town": "Waikoloa",
    "notes": "",
    "done": false
  },
  {
    "name": "Parker Ranch",
    "description": "",
    "maps": "https://maps.app.goo.gl/TDtyDEbga1Rrx4Qp7",
    "coordinates": "20.019808110760295, -155.6820500743033",
    "type": [
      "History"
    ],
    "region": "North",
    "town": "Waimea",
    "notes": "",
    "done": false
  },
  {
    "name": "Waialea Bay",
    "description": "",
    "maps": "https://maps.app.goo.gl/yHvjdybP6bdH9VXF6",
    "coordinates": "19.98101779843204, -155.8274064234992",
    "type": [
      "Snorkel"
    ],
    "region": "West",
    "town": "",
    "notes": "",
    "done": false
  },
  {
    "name": "Richardson Ocean Park",
    "description": "Turtles here?",
    "maps": "https://maps.app.goo.gl/QcziN1dgiW85eD4L9",
    "coordinates": "19.734913132548275, -155.0131349195349",
    "type": [
      "Snorkel"
    ],
    "region": "East",
    "town": "Hilo",
    "notes": "",
    "done": false
  },
  {
    "name": "Puka Puka Kitchen",
    "description": "Curry and bento",
    "maps": "https://maps.app.goo.gl/rBx8LHais9kBiFoX9",
    "coordinates": "19.7241698340703, -155.0856519483152",
    "type": [
      "Restaurant"
    ],
    "region": "East",
    "town": "Hilo",
    "notes": "",
    "done": false
  },
  {
    "name": "Two Step Beach",
    "description": "Go left?",
    "maps": "https://maps.app.goo.gl/axVpkp7Fx3HdqfzR9",
    "coordinates": "19.423393780546387, -155.91117034321988",
    "type": [
      "Snorkel"
    ],
    "region": "West",
    "town": "Kealakekua",
    "notes": "",
    "done": false
  },
  {
    "name": "Kealakekua Bay",
    "description": "Really good snorkeling. Requires a kayak or a 3.8 mile round-trip, 1300ft hike which is exposed to the sun. This is where Captain Cook was killed.",
    "maps": "https://maps.app.goo.gl/cNP4Ht9Q9u8bzbzf7",
    "coordinates": "19.492074659575017, -155.91797220960996",
    "type": [
      "Snorkel",
      "History"
    ],
    "region": "West",
    "town": "Kealakekua",
    "notes": "",
    "done": false
  },
  {
    "name": "Kikaua Point Park",
    "description": "Have to go early as there are only 20 spots to park. Also good for kids.",
    "maps": "https://maps.app.goo.gl/bu6ZSN5xvoKtAuKw9",
    "coordinates": "19.815201091394982, -156.00041156139596",
    "type": [
      "Snorkel",
      "Child friendly beach"
    ],
    "region": "West",
    "town": "Kona",
    "notes": "",
    "done": false
  },
  {
    "name": "Government Beach Road",
    "description": "A scenic drive through dense jungle, narrow road",
    "maps": "https://maps.app.goo.gl/mZQ37bMfJsgZPCZj8",
    "coordinates": "19.538377955865442, -154.8499153875403",
    "type": [
      "Sight"
    ],
    "region": "East",
    "town": "",
    "notes": "",
    "done": false
  },
  {
    "name": "Lili'uokalani Gardens & Coconut Island",
    "description": "",
    "maps": "https://maps.app.goo.gl/SXXZuPBS68vfBjqG7",
    "coordinates": "19.72594190826224, -155.06966148518543",
    "type": [
      "Hike"
    ],
    "region": "East",
    "town": "Hilo",
    "notes": "",
    "done": false
  },
  {
    "name": "Pu'uloa Petroglyphs",
    "description": "1.4 mile hike that is completely exposed with no shade",
    "maps": "https://maps.app.goo.gl/62i4MBhkq2Z5m9Ki6",
    "coordinates": "19.288847956302693, -155.12999686660265",
    "type": [
      "Hike"
    ],
    "region": "South",
    "town": "Volcano",
    "notes": "",
    "done": false
  },
  {
    "name": "'Akaka Falls",
    "description": "1/2 mile hike, but very popular so need to be there before 9am",
    "maps": "https://maps.app.goo.gl/BYEf5iu1D5ZFSMtw6",
    "coordinates": "19.853946175857025, -155.15213010754223",
    "type": [
      "Hike"
    ],
    "region": "East",
    "town": "Hilo",
    "notes": "",
    "done": false
  },
  {
    "name": "Kalopa Native Forest Trail",
    "description": "3/4 mile hike",
    "maps": "https://maps.app.goo.gl/DwDZWJD3UjtvvjKS7",
    "coordinates": "20.037255035228778, -155.4386513255968",
    "type": [
      "Hike"
    ],
    "region": "North",
    "town": "",
    "notes": "",
    "done": false
  },
  {
    "name": "Place of Refuge",
    "description": "1/2 mile walk. $20 per car entrance fee, nice at sunset.",
    "maps": "https://maps.app.goo.gl/X1EMFSngnvT5Vm1H7",
    "coordinates": "19.42219749750219, -155.90980343785643",
    "type": [
      "History"
    ],
    "region": "West",
    "town": "",
    "notes": "",
    "done": false
  },
  {
    "name": "Makaula 'Ō'ōma Trail",
    "description": "1 mile loop hike with lots of cool plants",
    "maps": "https://maps.app.goo.gl/CFGjYLyeWAN2RXWs7",
    "coordinates": "19.71709905486628, -155.9480336632445",
    "type": [
      "Hike"
    ],
    "region": "West",
    "town": "",
    "notes": "",
    "done": false
  },
  {
    "name": "Kahalu'u Beach Park",
    "description": "Really crowded, especially on weekends. Seems like volunteers are trying to preserve the reef.",
    "maps": "https://maps.app.goo.gl/WnU9zuyRhbwUogVx6",
    "coordinates": "19.57924254173851, -155.9666606029221",
    "type": [
      "Snorkel"
    ],
    "region": "West",
    "town": "Kona",
    "notes": "",
    "done": false
  },
  {
    "name": "Honaunau",
    "description": "Really good snorkeling and right next to the place of refuge. Same as two step?",
    "maps": "https://maps.app.goo.gl/A9DKBkctUPMcTCMg9",
    "coordinates": "19.423267558107888, -155.91132603795074",
    "type": [
      "Snorkel"
    ],
    "region": "West",
    "town": "Honaunau",
    "notes": "",
    "done": false
  },
  {
    "name": "Kanaka Kava",
    "description": "house made traditional kava and traditional Hawaiian food",
    "maps": "https://maps.app.goo.gl/WLVXMTariaqXh4DEA",
    "coordinates": "19.634935737589256, -155.98968654370003",
    "type": [
      "Restaurant"
    ],
    "region": "West",
    "town": "Kona",
    "notes": "",
    "done": false
  },
  {
    "name": "South Kona fruit stand",
    "description": "fresh fruit from the adjacent farm, smoothies",
    "maps": "https://maps.app.goo.gl/nUztuQ1sYZx6W8cf7",
    "coordinates": "19.413052187645963, -155.8807158442886",
    "type": [
      "Restaurant"
    ],
    "region": "South",
    "town": "Keokea",
    "notes": "",
    "done": false
  },
  {
    "name": "Road to the Sea",
    "description": "black and green sand beaches at the end of a rough road",
    "maps": "https://maps.app.goo.gl/A9N2MVUV2vBErVQa9",
    "coordinates": "19.096009735840997, -155.8026589974129",
    "type": [
      "Beach",
      "Sight"
    ],
    "region": "South",
    "town": "Ocean View",
    "notes": "",
    "done": false
  },
  {
    "name": "South Point",
    "description": "southern most point in the US, paved drive. Boat hoists at cliffs",
    "maps": "https://maps.app.goo.gl/xA2wbiPNUNfT5auE6",
    "coordinates": "18.91494002029568, -155.68226434809637",
    "type": [
      "Sight"
    ],
    "region": "South",
    "town": "Ocean View",
    "notes": "",
    "done": false
  },
  {
    "name": "Kilauea Overlook",
    "description": "The closest you can get to the active crater. Go at night to see the glow of the lava",
    "maps": "https://maps.app.goo.gl/h1JjgGXcwSAcDiBBA",
    "coordinates": "19.42319545740373, -155.28440862315492",
    "type": [
      "Sight"
    ],
    "region": "East",
    "town": "Volcano",
    "notes": "",
    "done": false
  },
  {
    "name": "Kilauea Iki Hike",
    "description": "3 mile loop hike, rain forest and lava crater",
    "maps": "https://maps.app.goo.gl/iLjaamLd2khagLoC9",
    "coordinates": "19.416631674674107, -155.24285447809282",
    "type": [
      "Hike",
      "Sight"
    ],
    "region": "East",
    "town": "Volcano",
    "notes": "",
    "done": false
  },
  {
    "name": "Hilina Pali Overlook",
    "description": "expansive view all the way down to the Sea. also lots of nene",
    "maps": "https://maps.app.goo.gl/VJDZcqomYz73jWne8",
    "coordinates": "19.295639201642057, -155.3069340746598",
    "type": [
      "Sight"
    ],
    "region": "East",
    "town": "Volcano",
    "notes": "",
    "done": false
  },
  {
    "name": "I Luv Dumplings",
    "description": "Chicken karaage",
    "maps": "https://maps.app.goo.gl/CEg5SdPadMnXHRBc7",
    "coordinates": "20.079298881949903, -155.46932493999603",
    "type": [
      "Restaurant"
    ],
    "region": "North",
    "town": "Ahualoa",
    "notes": "",
    "done": false
  },
  {
    "name": "Nori's Saimin and Snacks",
    "description": "",
    "maps": "https://maps.app.goo.gl/dvSVXa1xt7DWqkiQ7",
    "coordinates": "19.717396022954393, -155.08486004677988",
    "type": [
      "Restaurant"
    ],
    "region": "East",
    "town": "Hilo",
    "notes": "",
    "done": false
  },
  {
    "name": "Ken's House of Pancakes",
    "description": "Diner food, open 24 hours",
    "maps": "https://maps.app.goo.gl/trqb8xGHnpMuNYks5",
    "coordinates": "19.72229040469836, -155.06465946958647",
    "type": [
      "Restaurant"
    ],
    "region": "East",
    "town": "Hilo",
    "notes": "",
    "done": false
  },
  {
    "name": "Lava Thai Food",
    "description": "",
    "maps": "https://maps.app.goo.gl/kunVuYGNL72h9SsY9",
    "coordinates": "19.56144888227498, -154.99342596694984",
    "type": [
      "Restaurant"
    ],
    "region": "East",
    "town": "Keaau",
    "notes": "",
    "done": false
  },
  {
    "name": "Kaleo's Bar and Grill",
    "description": "Fish and chips, seems a little upscale",
    "maps": "https://maps.app.goo.gl/jsn2E44qmMXZJEuy9",
    "coordinates": "19.560010830316873, -154.99313477285673",
    "type": [
      "Restaurant"
    ],
    "region": "East",
    "town": "Keaau",
    "notes": "",
    "done": false
  },
  {
    "name": "Bite The Eye",
    "description": "Poke food truck with cocktails, also various preps of Ahi",
    "maps": "https://maps.app.goo.gl/5JSrHJUTkcztRp4z9",
    "coordinates": "19.542476622013666, -154.97358104368743",
    "type": [
      "Restaurant"
    ],
    "region": "East",
    "town": "Pahoa",
    "notes": "",
    "done": false
  },
  {
    "name": "Pahoa Fresh Fish",
    "description": "Various fried seafood",
    "maps": "https://maps.app.goo.gl/ss8soB4ebYHkJgNw9",
    "coordinates": "19.50504988505266, -154.9572908701558",
    "type": [
      "Restaurant"
    ],
    "region": "East",
    "town": "Pahoa",
    "notes": "",
    "done": false
  },
  {
    "name": "Pu'u O'o Trail",
    "description": "Various endemic birds and goes to kipuka (forest islands in lava). Up to 9 miles round trip. https://bigislandhikes.com/puu-oo-trail",
    "maps": "https://maps.app.goo.gl/az8oGFFN5EEFeEML9",
    "coordinates": "19.67691082516686, -155.38430887669682",
    "type": [
      "Hike"
    ],
    "region": "East",
    "town": "Hilo",
    "notes": "",
    "done": false
  },
  {
    "name": "La'aloa Beach Park",
    "description": "Also known as Magic Sands. Has a big shore break that often injures people.",
    "maps": "https://maps.app.goo.gl/9chKP1d9pKtn7KBF7",
    "coordinates": "19.59422667743899, -155.97177690634797",
    "type": [
      "Beach"
    ],
    "region": "West",
    "town": "Kona",
    "notes": "",
    "done": false
  },
  {
    "name": "Kona Sea Salt",
    "description": "$27/person for a 60-minute tour. Salt from the deep ocean water.",
    "maps": "https://maps.app.goo.gl/N2DA9mjRE4JzvhBU6",
    "coordinates": "19.726843641408152, -156.05752504996852",
    "type": [
      "Sight"
    ],
    "region": "West",
    "town": "Kona",
    "notes": "",
    "done": false
  },
  {
    "name": "Ocean Rider Inc",
    "description": "Seahorse farm tours. $80/adult and $11/toddler",
    "maps": "https://maps.app.goo.gl/GtaASC7sq1KGjd176",
    "coordinates": "19.723010834004416, -156.05635670705516",
    "type": [
      "Sight",
      "Kid experience"
    ],
    "region": "West",
    "town": "Kona",
    "notes": "",
    "done": false
  },
  {
    "name": "Kehena Black Sand Beach",
    "description": "Very narrow strip of beach",
    "maps": "https://maps.app.goo.gl/GYL5FeRk2jD46KJ8A",
    "coordinates": "19.394903341149135, -154.929058603345",
    "type": [
      "Beach",
      "Sight"
    ],
    "region": "East",
    "town": "Seaview",
    "notes": "",
    "done": false
  },
  {
    "name": "Teshima's Restaurant",
    "description": "Japanese breakfast and Teishoku",
    "maps": "https://maps.app.goo.gl/pnDE7VqShhJVTubaA",
    "coordinates": "19.541789495542066, -155.9288900471308",
    "type": [
      "Restaurant"
    ],
    "region": "West",
    "town": "Kealakekua",
    "notes": "",
    "done": false
  },
  {
    "name": "Kuleana Rum Shack",
    "description": "",
    "maps": "https://maps.app.goo.gl/M9JiHjnjM7qAv1dS6",
    "coordinates": "19.91397751283005, -155.8791698765965",
    "type": [
      "Drinks"
    ],
    "region": "North",
    "town": "Waikoloa",
    "notes": "",
    "done": false
  },
  {
    "name": "Lava Lava Beach Club",
    "description": "Dining on the beach in the sand, very expensive",
    "maps": "https://maps.app.goo.gl/ZKvWPabKFTBuvhPt9",
    "coordinates": "19.91330268252129, -155.88803161727787",
    "type": [
      "Restaurant"
    ],
    "region": "North",
    "town": "Waikoloa",
    "notes": "",
    "done": false
  },
  {
    "name": "Randy's Huli Chicken and Ribs",
    "description": "",
    "maps": "https://maps.app.goo.gl/2T1rdSxecLXBvVjv7",
    "coordinates": "19.523118053484314, -155.92164982410227",
    "type": [
      "Restaurant"
    ],
    "region": "West",
    "town": "Kealakekua",
    "notes": "",
    "done": false
  },
  {
    "name": "Gj's Huli Chicken",
    "description": "Only open Saturday and Sunday",
    "maps": "https://maps.app.goo.gl/SRGY987dvLGTZdn8A",
    "coordinates": "20.02607014191402, -155.65760195967886",
    "type": [
      "Restaurant"
    ],
    "region": "North",
    "town": "Waimea",
    "notes": "",
    "done": false
  },
  {
    "name": "Da Poke Shack",
    "description": "",
    "maps": "https://maps.app.goo.gl/wmPRsr1X9dUUwq9h6",
    "coordinates": "19.60789471339849, -155.97716787071457",
    "type": [
      "Restaurant"
    ],
    "region": "West",
    "town": "Kona",
    "notes": "",
    "done": false
  },
  {
    "name": "Maku'u Farmer's Market",
    "description": "Only on Sunday",
    "maps": "https://maps.app.goo.gl/SYMMsz9CsTqm7KYB6",
    "coordinates": "19.538071768659705, -154.9722177265121",
    "type": [
      "Market"
    ],
    "region": "East",
    "town": "Pahoa",
    "notes": "",
    "done": false
  },
  {
    "name": "Haena Beach",
    "description": "Also called shipman beach. Don't go after rain as it's muddy. The hike in onthe Puna trail is ~1,5 hour maybe more. (5 miles round trip but flat)",
    "maps": "https://maps.app.goo.gl/UiWWn74zTjz3wSER8",
    "coordinates": "19.643419422707634, -154.98182946574755",
    "type": [
      "Beach",
      "Hike",
      "Child friendly beach"
    ],
    "region": "East",
    "town": "Keaau",
    "notes": "",
    "done": false
  },
  {
    "name": "Imiloa Astronomy Center",
    "description": "Exhibits on Hawaiian history, planetarium and native plants. $19/person",
    "maps": "https://maps.app.goo.gl/LNEc3n6XHG1j3cd39",
    "coordinates": "19.701036794350646, -155.08862186065934",
    "type": [
      "Sight",
      "Kid experience"
    ],
    "region": "East",
    "town": "Hilo",
    "notes": "",
    "done": false
  },
  {
    "name": "Ho'okena Beach Park",
    "description": "South end is more sandy. Locals on canoes fishing.",
    "maps": "https://maps.app.goo.gl/nTfPv7cDWMo7Rqdh7",
    "coordinates": "19.379683955658354, -155.89758545011748",
    "type": [
      "Beach",
      "Snorkel"
    ],
    "region": "West",
    "town": "Captain Cook",
    "notes": "",
    "done": false
  },
  {
    "name": "Hapuna Beach",
    "description": "",
    "maps": "https://maps.app.goo.gl/uqezpSFQrdzJGuFF8",
    "coordinates": "19.99201423919833, -155.8257384000112",
    "type": [
      "Beach",
      "Snorkel",
      "Child friendly beach"
    ],
    "region": "West",
    "town": "Waikoloa",
    "notes": "",
    "done": false
  },
  {
    "name": "Mauna Kea Beach",
    "description": "Have to go before 10am to get access",
    "maps": "https://maps.app.goo.gl/PBDTxkpmjMxkrJ4t6",
    "coordinates": "20.004530898084585, -155.82456059144928",
    "type": [
      "Beach",
      "Snorkel",
      "Child friendly beach"
    ],
    "region": "West",
    "town": "Waikoloa",
    "notes": "",
    "done": false
  },
  {
    "name": "Mauna Loa Macadamia Nut Visitor Center",
    "description": "Nuts are cheaper at the grocery store",
    "maps": "https://maps.app.goo.gl/ZosUdP4t6LXbndZh7",
    "coordinates": "19.656460983373734, -155.00901312474105",
    "type": [
      "Sight"
    ],
    "region": "East",
    "town": "Keaau",
    "notes": "",
    "done": false
  },
  {
    "name": "Big Island Candies",
    "description": "Short bread cookies, good for omiyage",
    "maps": "https://maps.app.goo.gl/gS5TUCPKtd5gFxx6A",
    "coordinates": "19.712447373633974, -155.06784927174485",
    "type": [
      "Sight"
    ],
    "region": "East",
    "town": "Hilo",
    "notes": "",
    "done": false
  },
  {
    "name": "Umekes Fish Market Bar & Grill",
    "description": "Big menu with full bar. Poke, seafood, landfood.",
    "maps": "https://maps.app.goo.gl/xfiG4B7PBK1D3fqz6",
    "coordinates": "19.644066304077693, -155.99904859761656",
    "type": [
      "Restaurant"
    ],
    "region": "West",
    "town": "Kona",
    "notes": "",
    "done": false
  },
  {
    "name": "Punalu'u Bake Shop",
    "description": "Malasadas and sweet breads",
    "maps": "https://maps.app.goo.gl/tXT6EfNEoavX1VAJ7",
    "coordinates": "19.061177068031213, -155.58603890739016",
    "type": [
      "Restaurant"
    ],
    "region": "South",
    "town": "Naalehu",
    "notes": "",
    "done": false
  },
  {
    "name": "Big Island Abalone",
    "description": "Only open weekdays. Farm tour $35, food trailer with abalone",
    "maps": "https://maps.app.goo.gl/cQzfEgcWqjuctA6V6",
    "coordinates": "19.71394059055058, -156.04483803240154",
    "type": [
      "Restaurant",
      "Sight"
    ],
    "region": "West",
    "town": "Kona",
    "notes": "",
    "done": false
  },
  {
    "name": "Cheeky Tiki",
    "description": "Good view and tiki drinks. Right next to Kamaahonu beach which is good for kids.",
    "maps": "https://maps.app.goo.gl/C7JhoCjs298x5HPP6",
    "coordinates": "19.640266556697625, -155.99641267333618",
    "type": [
      "Drinks",
      "Restaurant"
    ],
    "region": "West",
    "town": "Kona",
    "notes": "",
    "done": false
  },
  {
    "name": "Moon and Turtle",
    "description": "Hyperlocal food, upscale. Asian fusion. They are supposed to have good cocktails as well.",
    "maps": "https://maps.app.goo.gl/7EYRU5rTxmboKqRj9",
    "coordinates": "19.725401803218368, -155.0871472076466",
    "type": [
      "Restaurant",
      "Drinks"
    ],
    "region": "East",
    "town": "Hilo",
    "notes": "",
    "done": false
  },
  {
    "name": "Pololū Valley",
    "description": "Short 1/2 mile hike to a beach in a valley. Not for swimming.",
    "maps": "https://maps.app.goo.gl/KsEQmsr7qHaX6skC9",
    "coordinates": "20.203508670832722, -155.73095570978555",
    "type": [
      "Hike",
      "Beach"
    ],
    "region": "North",
    "town": "Halaula",
    "notes": "",
    "done": false
  },
  {
    "name": "Lyman Museum",
    "description": "geoglogy fish and plant exhibits. $7 per person",
    "maps": "https://maps.app.goo.gl/sX5xpM3VF5F6b5LG7",
    "coordinates": "19.7222332, -155.0904771",
    "type": [
      "History",
      "Sight"
    ],
    "region": "East",
    "town": "Hilo",
    "notes": "",
    "done": false
  }
]